var marker_comm = {


  "type": "FeatureCollection",
  "features": [
 { "type": "Feature", "properties": { "NAME_EN": "Kebili", "NAME_AR": "قبلي" }, "geometry": { "type": "Point", "coordinates": [8.972569, 33.698851]}},
{ "type": "Feature", "properties": { "NAME_EN": "Douz", "NAME_AR": "دوز" }, "geometry": { "type": "Point", "coordinates": [9.0275, 33.461091]}},
{ "type": "Feature", "properties": { "NAME_EN": "Souk_Lahad", "NAME_AR": "سوق الأحد" }, "geometry": { "type": "Point", "coordinates": [8.860903, 33.775366]}},
{ "type": "Feature", "properties": { "NAME_AR": "الفوار" }, "geometry": { "type": "Point", "coordinates": [8.675677, 33.353585]}},
{ "type": "Feature", "properties": { "NAME_EN": "El_Gol%C3%A2a", "NAME_AR": "القلعة" }, "geometry": { "type": "Point", "coordinates": [9.004154, 33.481747]}},
{ "type": "Feature", "properties": { "NAME_EN": "Jemna/transparence", "NAME_AR": "جمنة" }, "geometry": { "type": "Point", "coordinates": [9.017909, 33.572973]}},
{ "type": "Feature", "properties": { "NAME_EN": "Tozeur", "NAME_AR": "توزر" }, "geometry": { "type": "Point", "coordinates": [8.128424, 33.92513]}},
{ "type": "Feature", "properties": { "NAME_EN": "Nefta", "NAME_AR": "نفطة" }, "geometry": { "type": "Point", "coordinates": [7.881017, 33.874442]}},
{ "type": "Feature", "properties": { "NAME_EN": "Degach", "NAME_AR": "دقاش" }, "geometry": { "type": "Point", "coordinates": [8.273005, 34.016206]}},
{ "type": "Feature", "properties": { "NAME_EN": "El_Hamma_du_Jerid", "NAME_AR": "حامة الجريد" }, "geometry": { "type": "Point", "coordinates": [8.161383, 33.998419]}},
{ "type": "Feature", "properties": { "NAME_EN": "Tamerza", "NAME_AR": "تمغزة" }, "geometry": { "type": "Point", "coordinates": [7.938781, 34.384777]}},
{ "type": "Feature", "properties": { "NAME_AR": "حزوة" }, "geometry": { "type": "Point", "coordinates": [7.601509, 33.738228]}},
{ "type": "Feature", "properties": { "NAME_EN": "Gafsa", "NAME_AR": "قفصة" }, "geometry": { "type": "Point", "coordinates": [8.785973, 34.418735]}},
{ "type": "Feature", "properties": { "NAME_EN": "Metlaoui", "NAME_AR": "المتلوي" }, "geometry": { "type": "Point", "coordinates": [8.402138, 34.320543]}},
{ "type": "Feature", "properties": { "NAME_EN": "El_Ksar/transparence", "NAME_AR": "القصر" }, "geometry": { "type": "Point", "coordinates": [8.80434, 34.402873]}},
{ "type": "Feature", "properties": { "NAME_EN": "Redeyef", "NAME_AR": "الرديف" }, "geometry": { "type": "Point", "coordinates": [8.149023, 34.381271]}},
{ "type": "Feature", "properties": { "NAME_EN": "Oum_El_Araies/transparence", "NAME_AR": "أم العرائس" }, "geometry": { "type": "Point", "coordinates": [8.264208, 34.48866]}},
{ "type": "Feature", "properties": { "NAME_EN": "Sened", "NAME_AR": "السند" }, "geometry": { "type": "Point", "coordinates": [9.264007, 34.462197]}},
{ "type": "Feature", "properties": { "NAME_EN": "El_Guettar", "NAME_AR": "القطار" }, "geometry": { "type": "Point", "coordinates": [8.951025, 34.33238]}},
{ "type": "Feature", "properties": { "NAME_EN": "Mdhila", "NAME_AR": "المظيلة" }, "geometry": { "type": "Point", "coordinates": [8.748379, 34.283886]}},
{ "type": "Feature", "properties": { "NAME_AR": "بلخير" }, "geometry": { "type": "Point", "coordinates": [9.392416, 34.275064]}},
{ "type": "Feature", "properties": { "NAME_AR": "سيدي عيش" }, "geometry": { "type": "Point", "coordinates": [8.785468, 34.731558]}},
{ "type": "Feature", "properties": { "NAME_EN": "Tataouine", "NAME_AR": "تطاوين" }, "geometry": { "type": "Point", "coordinates": [10.450873, 32.92931]}},
{ "type": "Feature", "properties": { "NAME_EN": "Ghomrassen", "NAME_AR": "غمراسن" }, "geometry": { "type": "Point", "coordinates": [10.339165, 33.058673]}},
{ "type": "Feature", "properties": { "NAME_AR": "الصمار" }, "geometry": { "type": "Point", "coordinates": [10.822785, 32.995316]}},
{ "type": "Feature", "properties": { "NAME_EN": "Remada", "NAME_AR": "رمادة" }, "geometry": { "type": "Point", "coordinates": [10.397401, 32.315862]}},
{ "type": "Feature", "properties": { "NAME_EN": "Bir_Lahmar", "NAME_AR": "بئر الأحمر" }, "geometry": { "type": "Point", "coordinates": [10.442033, 33.178329]}},
{ "type": "Feature", "properties": { "NAME_EN": "Dehiba", "NAME_AR": "الذهيبة" }, "geometry": { "type": "Point", "coordinates": [10.700684, 32.00924]}},
{ "type": "Feature", "properties": { "NAME_EN": "Medenine", "NAME_AR": "مدنين" }, "geometry": { "type": "Point", "coordinates": [10.494432, 33.348383]}},
{ "type": "Feature", "properties": { "NAME_EN": "Ben_Gardane", "NAME_AR": "بن قردان" }, "geometry": { "type": "Point", "coordinates": [11.216183, 33.138773]}},
{ "type": "Feature", "properties": { "NAME_EN": "Jerba_Houmt_Souk", "NAME_AR": "جربة حومة السوق" }, "geometry": { "type": "Point", "coordinates": [10.858955, 33.873124]}},
{ "type": "Feature", "properties": { "NAME_EN": "Jerba_Midoun", "NAME_AR": "جربة ميدون" }, "geometry": { "type": "Point", "coordinates": [11.000061, 33.820373]}},
{ "type": "Feature", "properties": { "NAME_EN": "Zarzis", "NAME_AR": "جرجيس" }, "geometry": { "type": "Point", "coordinates": [11.110611, 33.499892]}},
{ "type": "Feature", "properties": { "NAME_EN": "Beni_Khedache", "NAME_AR": "بني خداش" }, "geometry": { "type": "Point", "coordinates": [10.200291, 33.248845]}},
{ "type": "Feature", "properties": { "NAME_AR": "سيدي مخلوف" }, "geometry": { "type": "Point", "coordinates": [10.480626, 33.505474]}},
{ "type": "Feature", "properties": { "NAME_EN": "Jerba_Ajim", "NAME_AR": "جربة أجيم" }, "geometry": { "type": "Point", "coordinates": [10.749135, 33.724625]}},
{ "type": "Feature", "properties": { "NAME_EN": "Gabes", "NAME_AR": "قابس" }, "geometry": { "type": "Point", "coordinates": [10.101414, 33.881817]}},
{ "type": "Feature", "properties": { "NAME_EN": "El_Hamma/transparence", "NAME_AR": "الحامة" }, "geometry": { "type": "Point", "coordinates": [9.790535, 33.88253]}},
{ "type": "Feature", "properties": { "NAME_EN": "Mareth", "NAME_AR": "مارث" }, "geometry": { "type": "Point", "coordinates": [10.287752, 33.618908]}},
{ "type": "Feature", "properties": { "NAME_EN": "Ghannouch", "NAME_AR": "غنوش" }, "geometry": { "type": "Point", "coordinates": [10.067854, 33.93955]}},
{ "type": "Feature", "properties": { "NAME_EN": "Chenini", "NAME_AR": "شنني النحال" }, "geometry": { "type": "Point", "coordinates": [10.063992, 33.875832]}},
{ "type": "Feature", "properties": { "NAME_EN": "Oudref", "NAME_AR": "وذرف" }, "geometry": { "type": "Point", "coordinates": [9.971337, 33.985858]}},
{ "type": "Feature", "properties": { "NAME_EN": "Nouvelle_Matmata", "NAME_AR": "مطماطة الجديدة" }, "geometry": { "type": "Point", "coordinates": [10.015755, 33.664282]}},
{ "type": "Feature", "properties": { "NAME_EN": "Metouia", "NAME_AR": "المطوية" }, "geometry": { "type": "Point", "coordinates": [10.004125, 33.956389]}},
{ "type": "Feature", "properties": { "NAME_AR": "منزل الحبيب" }, "geometry": { "type": "Point", "coordinates": [9.598092, 34.230225]}},
{ "type": "Feature", "properties": { "NAME_EN": "Zarat", "NAME_AR": "الزرات" }, "geometry": { "type": "Point", "coordinates": [10.350409, 33.666211]}},
{ "type": "Feature", "properties": { "NAME_EN": "Matmata", "NAME_AR": "مطماطة القديمة" }, "geometry": { "type": "Point", "coordinates": [9.966059, 33.54186]}},
{ "type": "Feature", "properties": { "NAME_EN": "Sidi Bouzid", "NAME_AR": "سيدي بوزيد" }, "geometry": { "type": "Point", "coordinates": [9.485235, 35.035759]}},
{ "type": "Feature", "properties": { "NAME_EN": "Regueb", "NAME_AR": "الرقاب" }, "geometry": { "type": "Point", "coordinates": [9.785085, 34.859771]}},
{ "type": "Feature", "properties": { "NAME_EN": "Menzel_Bouzaiane", "NAME_AR": "منزل بوزيان" }, "geometry": { "type": "Point", "coordinates": [9.426699, 34.572239]}},
{ "type": "Feature", "properties": { "NAME_EN": "Mezzouna", "NAME_AR": "المزونة" }, "geometry": { "type": "Point", "coordinates": [9.842205, 34.577892]}},
{ "type": "Feature", "properties": { "NAME_EN": "Bir_El_Hafey", "NAME_AR": "بئر الحفي" }, "geometry": { "type": "Point", "coordinates": [9.196501, 34.931014]}},
{ "type": "Feature", "properties": { "NAME_EN": "Jilma", "NAME_AR": "جلمة" }, "geometry": { "type": "Point", "coordinates": [9.421592, 35.271831]}},
{ "type": "Feature", "properties": { "NAME_EN": "Meknassy", "NAME_AR": "المكناسي" }, "geometry": { "type": "Point", "coordinates": [9.604712, 34.604742]}},
{ "type": "Feature", "properties": { "NAME_AR": "السعيدة" }, "geometry": { "type": "Point", "coordinates": [9.953421, 34.966401]}},
{ "type": "Feature", "properties": { "NAME_AR": "سوق الجديد" }, "geometry": { "type": "Point", "coordinates": [9.565312, 34.94326]}},
{ "type": "Feature", "properties": { "NAME_EN": "Essabbala", "NAME_AR": "السبالة" }, "geometry": { "type": "Point", "coordinates": [9.275508, 35.178018]}},
{ "type": "Feature", "properties": { "NAME_EN": "Ouled_Haffouz", "NAME_AR": "أولاد حفوز" }, "geometry": { "type": "Point", "coordinates": [9.660416, 35.049673]}},
{ "type": "Feature", "properties": { "NAME_EN": "Sidi_Ali_Ben_Aoun", "NAME_AR": "سيدي علي بن عون" }, "geometry": { "type": "Point", "coordinates": [9.143114, 34.851847]}},
{ "type": "Feature", "properties": { "NAME_AR": "النور" }, "geometry": { "type": "Point", "coordinates": [8.855323, 35.174042]}},
{ "type": "Feature", "properties": { "NAME_EN": "Thala", "NAME_AR": "تالة" }, "geometry": { "type": "Point", "coordinates": [8.667226, 35.576742]}},
{ "type": "Feature", "properties": { "NAME_EN": "Sbe%C3%AFtla", "NAME_AR": "سبيطلة" }, "geometry": { "type": "Point", "coordinates": [9.128308, 35.228794]}},
{ "type": "Feature", "properties": { "NAME_EN": "Feriana", "NAME_AR": "فريانة" }, "geometry": { "type": "Point", "coordinates": [8.563328, 34.941814]}},
{ "type": "Feature", "properties": { "NAME_EN": "Kasserine", "NAME_AR": "القصرين" }, "geometry": { "type": "Point", "coordinates": [8.834553, 35.165389]}},
{ "type": "Feature", "properties": { "NAME_EN": "Foussana", "NAME_AR": "فوسانة" }, "geometry": { "type": "Point", "coordinates": [8.627787, 35.348456]}},
{ "type": "Feature", "properties": { "NAME_EN": "Magel_Bel_Abbes", "NAME_AR": "ماجل بالعباس" }, "geometry": { "type": "Point", "coordinates": [8.521142, 34.749159]}},
{ "type": "Feature", "properties": { "NAME_EN": "Sbiba", "NAME_AR": "سبيبة" }, "geometry": { "type": "Point", "coordinates": [9.073377, 35.544484]}},
{ "type": "Feature", "properties": { "NAME_AR": "الزهور" }, "geometry": { "type": "Point", "coordinates": [8.820356, 35.16909]}},
{ "type": "Feature", "properties": { "NAME_AR": "حاسي الفريد" }, "geometry": { "type": "Point", "coordinates": [8.949607, 34.976632]}},
{ "type": "Feature", "properties": { "NAME_EN": "Thelepte", "NAME_AR": "تلابت" }, "geometry": { "type": "Point", "coordinates": [8.594184, 34.976318]}},
{ "type": "Feature", "properties": { "NAME_EN": "Jedelienne", "NAME_AR": "جدليان" }, "geometry": { "type": "Point", "coordinates": [9.057798, 35.593215]}},
{ "type": "Feature", "properties": { "NAME_EN": "Ha%C3%AFdra", "NAME_AR": "حيدرة" }, "geometry": { "type": "Point", "coordinates": [8.444366, 35.565467]}},
{ "type": "Feature", "properties": { "NAME_EN": "Kairouan", "NAME_AR": "القيروان" }, "geometry": { "type": "Point", "coordinates": [10.096779, 35.673544]}},
{ "type": "Feature", "properties": { "NAME_EN": "Bou_Hajla", "NAME_AR": "بوحجلة" }, "geometry": { "type": "Point", "coordinates": [10.048542, 35.394857]}},
{ "type": "Feature", "properties": { "NAME_EN": "Sbikha", "NAME_AR": "السبيخة" }, "geometry": { "type": "Point", "coordinates": [10.021205, 35.932046]}},
{ "type": "Feature", "properties": { "NAME_EN": "Ala%C3%A2", "NAME_AR": "العلا" }, "geometry": { "type": "Point", "coordinates": [9.562955, 35.614744]}},
{ "type": "Feature", "properties": { "NAME_EN": "El_Oueslatia", "NAME_AR": "الوسلاتية" }, "geometry": { "type": "Point", "coordinates": [9.59085, 35.849092]}},
{ "type": "Feature", "properties": { "NAME_EN": "Haffouz", "NAME_AR": "حفوز" }, "geometry": { "type": "Point", "coordinates": [9.672346, 35.634488]}},
{ "type": "Feature", "properties": { "NAME_EN": "Hajeb_El_Ayoun", "NAME_AR": "حاجب العيون" }, "geometry": { "type": "Point", "coordinates": [9.543343, 35.395277]}},
{ "type": "Feature", "properties": { "NAME_EN": "Nasr_Allah", "NAME_AR": "نصر الله" }, "geometry": { "type": "Point", "coordinates": [9.82976, 35.354021]}},
{ "type": "Feature", "properties": { "NAME_EN": "Chebika", "NAME_AR": "الشبيكة" }, "geometry": { "type": "Point", "coordinates": [9.925461, 35.617849]}},
{ "type": "Feature", "properties": { "NAME_EN": "Echrarda", "NAME_AR": "الشراردة" }, "geometry": { "type": "Point", "coordinates": [10.095491, 35.674311]}},
{ "type": "Feature", "properties": { "NAME_EN": "Menzel_Mehiri", "NAME_AR": "منزل مهيري" }, "geometry": { "type": "Point", "coordinates": [10.096779, 35.673544]}},
{ "type": "Feature", "properties": { "NAME_EN": "A%C3%AFn_Jloula", "NAME_AR": "عين جلولة" }, "geometry": { "type": "Point", "coordinates": [9.803581, 35.799019]}},
{ "type": "Feature", "properties": { "NAME_EN": "Sfax", "NAME_AR": "صفاقس" }, "geometry": { "type": "Point", "coordinates": [10.7551, 34.741542]}},
{ "type": "Feature", "properties": { "NAME_EN": "Sakiet_Ezzit", "NAME_AR": "ساقية الزيت" }, "geometry": { "type": "Point", "coordinates": [10.769606, 34.799321]}},
{ "type": "Feature", "properties": { "NAME_EN": "Sakiet_Edda%C3%AFr", "NAME_AR": "ساقية الدائر" }, "geometry": { "type": "Point", "coordinates": [10.80514, 34.792766]}},
{ "type": "Feature", "properties": { "NAME_EN": "Thyna/transparence", "NAME_AR": "طينة" }, "geometry": { "type": "Point", "coordinates": [10.690727, 34.715936]}},
{ "type": "Feature", "properties": { "NAME_EN": "El_A%C3%AFn", "NAME_AR": "العين" }, "geometry": { "type": "Point", "coordinates": [10.783339, 34.799497]}},
{ "type": "Feature", "properties": { "NAME_EN": "Agareb", "NAME_AR": "عقارب" }, "geometry": { "type": "Point", "coordinates": [10.524216, 34.74193]}},
{ "type": "Feature", "properties": { "NAME_EN": "Gremda", "NAME_AR": "قرمدة" }, "geometry": { "type": "Point", "coordinates": [10.742998, 34.743587]}},
{ "type": "Feature", "properties": { "NAME_EN": "Skhira", "NAME_AR": "الصخيرة" }, "geometry": { "type": "Point", "coordinates": [10.070858, 34.298139]}},
{ "type": "Feature", "properties": { "NAME_EN": "Mahres", "NAME_AR": "المحرس" }, "geometry": { "type": "Point", "coordinates": [10.489798, 34.526641]}},
{ "type": "Feature", "properties": { "NAME_EN": "El_Hencha", "NAME_AR": "الحنشة" }, "geometry": { "type": "Point", "coordinates": [10.742955, 35.120927]}},
{ "type": "Feature", "properties": { "NAME_EN": "Bir_Ali_Ben_Khelifa/transparence", "NAME_AR": "بئر علي بن خليفة" }, "geometry": { "type": "Point", "coordinates": [10.094075, 34.733783]}},
{ "type": "Feature", "properties": { "NAME_EN": "Jebiniana", "NAME_AR": "جبنيانة" }, "geometry": { "type": "Point", "coordinates": [10.908179, 35.034494]}},
{ "type": "Feature", "properties": { "NAME_AR": "العامرة" }, "geometry": { "type": "Point", "coordinates": [10.897626, 34.98349]}},
{ "type": "Feature", "properties": { "NAME_EN": "Chihia", "NAME_AR": "الشيحية" }, "geometry": { "type": "Point", "coordinates": [10.741196, 34.748101]}},
{ "type": "Feature", "properties": { "NAME_EN": "Menzel_Chaker/transparence", "NAME_AR": "منزل شاكر" }, "geometry": { "type": "Point", "coordinates": [10.370107, 34.965803]}},
{ "type": "Feature", "properties": { "NAME_EN": "Gra%C3%AFba", "NAME_AR": "الغريبة" }, "geometry": { "type": "Point", "coordinates": [10.21132, 34.496901]}},
{ "type": "Feature", "properties": { "NAME_EN": "Kerkennah/transparence", "NAME_AR": "قرقنة" }, "geometry": { "type": "Point", "coordinates": [11.158676, 34.705493]}},
{ "type": "Feature", "properties": { "NAME_EN": "Mahdia", "NAME_AR": "المهدية" }, "geometry": { "type": "Point", "coordinates": [11.050701, 35.504422]}},
{ "type": "Feature", "properties": { "NAME_EN": "Ksour_Essef", "NAME_AR": "قصور الساف" }, "geometry": { "type": "Point", "coordinates": [10.992422, 35.418118]}},
{ "type": "Feature", "properties": { "NAME_EN": "El_Jem", "NAME_AR": "الجم" }, "geometry": { "type": "Point", "coordinates": [10.706735, 35.296283]}},
{ "type": "Feature", "properties": { "NAME_EN": "Essouassi", "NAME_AR": "السواسي" }, "geometry": { "type": "Point", "coordinates": [10.547132, 35.343765]}},
{ "type": "Feature", "properties": { "NAME_EN": "Chorbane", "NAME_AR": "شربان" }, "geometry": { "type": "Point", "coordinates": [10.386307, 35.28581]}},
{ "type": "Feature", "properties": { "NAME_EN": "Sidi_Alouane/transparence", "NAME_AR": "سيدي علوان" }, "geometry": { "type": "Point", "coordinates": [10.936804, 35.375334]}},
{ "type": "Feature", "properties": { "NAME_EN": "Chebba", "NAME_AR": "الشابة" }, "geometry": { "type": "Point", "coordinates": [11.114388, 35.2323]}},
{ "type": "Feature", "properties": { "NAME_EN": "Ouled_Chamekh", "NAME_AR": "أولاد الشامخ" }, "geometry": { "type": "Point", "coordinates": [10.31672, 35.49125]}},
{ "type": "Feature", "properties": { "NAME_EN": "Mellouleche", "NAME_AR": "ملولش" }, "geometry": { "type": "Point", "coordinates": [11.032634, 35.166196]}},
{ "type": "Feature", "properties": { "NAME_EN": "El_Brada%C3%A2", "NAME_AR": "البرادعة" }, "geometry": { "type": "Point", "coordinates": [11.00461, 35.297614]}},
{ "type": "Feature", "properties": { "NAME_EN": "Kerker", "NAME_AR": "كركر" }, "geometry": { "type": "Point", "coordinates": [10.645151, 35.477132]}},
{ "type": "Feature", "properties": { "NAME_EN": "Bou_Merdes", "NAME_AR": "بومرداس" }, "geometry": { "type": "Point", "coordinates": [10.727892, 35.455147]}},
{ "type": "Feature", "properties": { "NAME_EN": "Hebira", "NAME_AR": "هبيرة" }, "geometry": { "type": "Point", "coordinates": [10.22913, 35.168651]}},
{ "type": "Feature", "properties": { "NAME_EN": "Rejiche", "NAME_AR": "رجيش" }, "geometry": { "type": "Point", "coordinates": [11.038728, 35.461614]}},
{ "type": "Feature", "properties": { "NAME_EN": "Monastir", "NAME_AR": "المنستير" }, "geometry": { "type": "Point", "coordinates": [10.790634, 35.75111]}},
{ "type": "Feature", "properties": { "NAME_EN": "Moknine/transparence", "NAME_AR": "مكنين" }, "geometry": { "type": "Point", "coordinates": [10.904531, 35.630931]}},
{ "type": "Feature", "properties": { "NAME_EN": "Jemmal", "NAME_AR": "جمال" }, "geometry": { "type": "Point", "coordinates": [10.756516, 35.624756]}},
{ "type": "Feature", "properties": { "NAME_EN": "Ksar_Hellal", "NAME_AR": "قصر هلال" }, "geometry": { "type": "Point", "coordinates": [10.900068, 35.649311]}},
{ "type": "Feature", "properties": { "NAME_EN": "Teboulba", "NAME_AR": "طبلبة" }, "geometry": { "type": "Point", "coordinates": [10.966887, 35.639371]}},
{ "type": "Feature", "properties": { "NAME_EN": "Ouerdanine", "NAME_AR": "الوردانين" }, "geometry": { "type": "Point", "coordinates": [10.672874, 35.711326]}},
{ "type": "Feature", "properties": { "NAME_EN": "Sahline_Mo%C3%B4tmar", "NAME_AR": "الساحلين معتمر" }, "geometry": { "type": "Point", "coordinates": [10.704288, 35.746443]}},
{ "type": "Feature", "properties": { "NAME_EN": "Bekalta/transparence", "NAME_AR": "البقالطة" }, "geometry": { "type": "Point", "coordinates": [10.995169, 35.616558]}},
{ "type": "Feature", "properties": { "NAME_EN": "Zeramdine", "NAME_AR": "زرمدين" }, "geometry": { "type": "Point", "coordinates": [10.7342, 35.575241]}},
{ "type": "Feature", "properties": { "NAME_EN": "Bembla/transparence", "NAME_AR": "بنبلة والمنارة" }, "geometry": { "type": "Point", "coordinates": [10.790076, 35.696341]}},
{ "type": "Feature", "properties": { "NAME_EN": "Bennane", "NAME_AR": "بنان بوضر" }, "geometry": { "type": "Point", "coordinates": [10.835781, 35.674485]}},
{ "type": "Feature", "properties": { "NAME_EN": "Ksibet_el-Mediouni/transparence", "NAME_AR": "قصيبة الميدوني" }, "geometry": { "type": "Point", "coordinates": [10.84269, 35.685396]}},
{ "type": "Feature", "properties": { "NAME_EN": "Sayada", "NAME_AR": "صيادة" }, "geometry": { "type": "Point", "coordinates": [10.897622, 35.663886]}},
{ "type": "Feature", "properties": { "NAME_EN": "Menzel_Hayet/transparence", "NAME_AR": "منزل حياة" }, "geometry": { "type": "Point", "coordinates": [10.744629, 35.666222]}},
{ "type": "Feature", "properties": { "NAME_EN": "Menzel_Ennour", "NAME_AR": "منزل نور" }, "geometry": { "type": "Point", "coordinates": [10.777373, 35.667164]}},
{ "type": "Feature", "properties": { "NAME_EN": "Khniss", "NAME_AR": "خنيس" }, "geometry": { "type": "Point", "coordinates": [10.813723, 35.716099]}},
{ "type": "Feature", "properties": { "NAME_EN": "Beni_Hassen", "NAME_AR": "بني حسان" }, "geometry": { "type": "Point", "coordinates": [10.808616, 35.566828]}},
{ "type": "Feature", "properties": { "NAME_EN": "Sidi_Ameur", "NAME_AR": "سيدي عامر" }, "geometry": { "type": "Point", "coordinates": [10.70549, 35.745885]}},
{ "type": "Feature", "properties": { "NAME_EN": "Menzel_Kamel", "NAME_AR": "منزل كامل" }, "geometry": { "type": "Point", "coordinates": [10.666394, 35.625524]}},
{ "type": "Feature", "properties": { "NAME_EN": "Amiet_Hojjaj", "NAME_AR": "عميرة الحجاج" }, "geometry": { "type": "Point", "coordinates": [10.82222, 35.660644]}},
{ "type": "Feature", "properties": { "NAME_EN": "Touza", "NAME_AR": "طوزة" }, "geometry": { "type": "Point", "coordinates": [10.828185, 35.634907]}},
{ "type": "Feature", "properties": { "NAME_EN": "Zouiet_Kontoch/transparence", "NAME_AR": "زاوية قنطش" }, "geometry": { "type": "Point", "coordinates": [10.766387, 35.633058]}},
{ "type": "Feature", "properties": { "NAME_EN": "Amiet_Touazra", "NAME_AR": "عميرة الطوازرة" }, "geometry": { "type": "Point", "coordinates": [10.82222, 35.660644]}},
{ "type": "Feature", "properties": { "NAME_EN": "Bouhjar", "NAME_AR": "بوحجر" }, "geometry": { "type": "Point", "coordinates": [10.879555, 35.658273]}},
{ "type": "Feature", "properties": { "NAME_EN": "Lamta", "NAME_AR": "لمطة" }, "geometry": { "type": "Point", "coordinates": [10.875349, 35.669151]}},
{ "type": "Feature", "properties": { "NAME_EN": "Amiet_El_Fhoul", "NAME_AR": "عميرة الفحول" }, "geometry": { "type": "Point", "coordinates": [10.82222, 35.660644]}},
{ "type": "Feature", "properties": { "NAME_EN": "Ghenada", "NAME_AR": "غنادة" }, "geometry": { "type": "Point", "coordinates": [10.805054, 35.658412]}},
{ "type": "Feature", "properties": { "NAME_EN": "El_Masdour_Menzel_Harb", "NAME_AR": "المصدور منزل حرب" }, "geometry": { "type": "Point", "coordinates": [10.7284036, 35.6810129]}},
{ "type": "Feature", "properties": { "NAME_EN": "Sidi_Bennour/transparence", "NAME_AR": "سيدي بنور" }, "geometry": { "type": "Point", "coordinates": [10.913072, 35.526464]}},
{ "type": "Feature", "properties": { "NAME_EN": "Cherahil", "NAME_AR": "الشراحيل" }, "geometry": { "type": "Point", "coordinates": [10.805054, 35.658412]}},
{ "type": "Feature", "properties": { "NAME_EN": "Menzel_Farsi", "NAME_AR": "منزل فارسي" }, "geometry": { "type": "Point", "coordinates": [10.86904, 35.55028]}},
{ "type": "Feature", "properties": { "NAME_EN": "Sousse", "NAME_AR": "سوسة" }, "geometry": { "type": "Point", "coordinates": [10.623951, 35.822615]}},
{ "type": "Feature", "properties": { "NAME_EN": "M%27saken", "NAME_AR": "مساكن" }, "geometry": { "type": "Point", "coordinates": [10.579062, 35.729374]}},
{ "type": "Feature", "properties": { "NAME_EN": "Ezzouhour", "NAME_AR": "الزهور" }, "geometry": { "type": "Point", "coordinates": [10.592365, 35.800272]}},
{ "type": "Feature", "properties": { "NAME_EN": "Kalaa_Kebira", "NAME_AR": "القلعة الكبيرة" }, "geometry": { "type": "Point", "coordinates": [10.533743, 35.870482]}},
{ "type": "Feature", "properties": { "NAME_EN": "Hammam_Sousse/transparence", "NAME_AR": "حمام سوسة" }, "geometry": { "type": "Point", "coordinates": [10.593739, 35.859422]}},
{ "type": "Feature", "properties": { "NAME_EN": "Kalaa_Seghira", "NAME_AR": "القلعة الصغيرة" }, "geometry": { "type": "Point", "coordinates": [10.56005, 35.821328]}},
{ "type": "Feature", "properties": { "NAME_EN": "Enfida", "NAME_AR": "النفيضة" }, "geometry": { "type": "Point", "coordinates": [10.375171, 36.133404]}},
{ "type": "Feature", "properties": { "NAME_EN": "Akouda", "NAME_AR": "أكودة" }, "geometry": { "type": "Point", "coordinates": [10.564642, 35.871108]}},
{ "type": "Feature", "properties": { "NAME_EN": "Bouficha/transparence", "NAME_AR": "بوفيشة" }, "geometry": { "type": "Point", "coordinates": [10.454135, 36.296311]}},
{ "type": "Feature", "properties": { "NAME_EN": "Zaouiet_Sousse", "NAME_AR": "زاوية سوسة" }, "geometry": { "type": "Point", "coordinates": [10.626869, 35.777993]}},
{ "type": "Feature", "properties": { "NAME_EN": "Sidi_Bou_Ali", "NAME_AR": "سيدي بوعلي" }, "geometry": { "type": "Point", "coordinates": [10.475335, 35.957583]}},
{ "type": "Feature", "properties": { "NAME_EN": "Kondar", "NAME_AR": "كندار" }, "geometry": { "type": "Point", "coordinates": [10.299125, 35.932394]}},
{ "type": "Feature", "properties": { "NAME_EN": "Sidi_El_Hani", "NAME_AR": "سيدي الهاني" }, "geometry": { "type": "Point", "coordinates": [10.308523, 35.681074]}},
{ "type": "Feature", "properties": { "NAME_EN": "Messaadine", "NAME_AR": "المسعدين" }, "geometry": { "type": "Point", "coordinates": [10.595412, 35.761418]}},
{ "type": "Feature", "properties": { "NAME_EN": "Ksibet_Thrayet", "NAME_AR": "قصيبة الثريات" }, "geometry": { "type": "Point", "coordinates": [10.618629, 35.765597]}},
{ "type": "Feature", "properties": { "NAME_EN": "Hergla", "NAME_AR": "هرقلة" }, "geometry": { "type": "Point", "coordinates": [10.505075, 36.028521]}},
{ "type": "Feature", "properties": { "NAME_EN": "Siliana", "NAME_AR": "سليانة" }, "geometry": { "type": "Point", "coordinates": [9.370608, 36.087465]}},
{ "type": "Feature", "properties": { "NAME_EN": "Makthar", "NAME_AR": "مكثر" }, "geometry": { "type": "Point", "coordinates": [9.205685, 35.860013]}},
{ "type": "Feature", "properties": { "NAME_EN": "Bou_Arada", "NAME_AR": "بوعرادة" }, "geometry": { "type": "Point", "coordinates": [9.623294, 36.350734]}},
{ "type": "Feature", "properties": { "NAME_EN": "El_Krib", "NAME_AR": "الكريب" }, "geometry": { "type": "Point", "coordinates": [9.135261, 36.327262]}},
{ "type": "Feature", "properties": { "NAME_EN": "Ga%C3%A2four", "NAME_AR": "قعفور" }, "geometry": { "type": "Point", "coordinates": [9.323616, 36.321868]}},
{ "type": "Feature", "properties": { "NAME_EN": "Kesra", "NAME_AR": "كسرى" }, "geometry": { "type": "Point", "coordinates": [9.363055, 35.814055]}},
{ "type": "Feature", "properties": { "NAME_EN": "Rouhia", "NAME_AR": "الروحية" }, "geometry": { "type": "Point", "coordinates": [9.05385, 35.649973]}},
{ "type": "Feature", "properties": { "NAME_EN": "Sidi_Bou_Rouis", "NAME_AR": "سيدي بورويس" }, "geometry": { "type": "Point", "coordinates": [9.125175, 36.177341]}},
{ "type": "Feature", "properties": { "NAME_EN": "Bargou", "NAME_AR": "برقو" }, "geometry": { "type": "Point", "coordinates": [9.568148, 36.093569]}},
{ "type": "Feature", "properties": { "NAME_EN": "El_Aroussa", "NAME_AR": "العروسة" }, "geometry": { "type": "Point", "coordinates": [9.453864, 36.378726]}},
{ "type": "Feature", "properties": { "NAME_EN": "Le Kef", "NAME_AR": "الكاف" }, "geometry": { "type": "Point", "coordinates": [8.70821, 36.170516]}},
{ "type": "Feature", "properties": { "NAME_EN": "Dahmani", "NAME_AR": "الدهماني" }, "geometry": { "type": "Point", "coordinates": [8.830261, 35.943026]}},
{ "type": "Feature", "properties": { "NAME_EN": "Tajerouine", "NAME_AR": "تاجروين" }, "geometry": { "type": "Point", "coordinates": [8.552642, 35.890302]}},
{ "type": "Feature", "properties": { "NAME_EN": "Sers", "NAME_AR": "السرس" }, "geometry": { "type": "Point", "coordinates": [9.020891, 36.076748]}},
{ "type": "Feature", "properties": { "NAME_EN": "Sakiet_Sidi_Youssef", "NAME_AR": "ساقية سيدي يوسف" }, "geometry": { "type": "Point", "coordinates": [8.355188, 36.221773]}},
{ "type": "Feature", "properties": { "NAME_EN": "Kalaat_Senan", "NAME_AR": "قلعة سنان" }, "geometry": { "type": "Point", "coordinates": [8.3424, 35.766363]}},
{ "type": "Feature", "properties": { "NAME_EN": "El_Ksour", "NAME_AR": "القصور" }, "geometry": { "type": "Point", "coordinates": [8.885922, 35.894752]}},
{ "type": "Feature", "properties": { "NAME_EN": "Nebeur", "NAME_AR": "نبر" }, "geometry": { "type": "Point", "coordinates": [8.76694, 36.296605]}},
{ "type": "Feature", "properties": { "NAME_EN": "Jerissa", "NAME_AR": "الجريصة" }, "geometry": { "type": "Point", "coordinates": [8.629889, 35.841891]}},
{ "type": "Feature", "properties": { "NAME_EN": "Menzel_Salem", "NAME_AR": "منزل سالم" }, "geometry": { "type": "Point", "coordinates": [8.475094, 35.854657]}},
{ "type": "Feature", "properties": { "NAME_EN": "Kalaat_Khasba", "NAME_AR": "القلعة الخصباء" }, "geometry": { "type": "Point", "coordinates": [8.587446, 35.659911]}},
{ "type": "Feature", "properties": { "NAME_EN": "Touiref", "NAME_AR": "الطويرف" }, "geometry": { "type": "Point", "coordinates": [8.582983, 36.340364]}},
{ "type": "Feature", "properties": { "NAME_EN": "Jendouba", "NAME_AR": "جندوبة" }, "geometry": { "type": "Point", "coordinates": [8.778076, 36.498804]}},
{ "type": "Feature", "properties": { "NAME_EN": "Ghardimaou", "NAME_AR": "غار الدماء" }, "geometry": { "type": "Point", "coordinates": [8.435097, 36.449836]}},
{ "type": "Feature", "properties": { "NAME_EN": "Bousalem", "NAME_AR": "بوسالم" }, "geometry": { "type": "Point", "coordinates": [8.972826, 36.60912]}},
{ "type": "Feature", "properties": { "NAME_EN": "Tabarka", "NAME_AR": "طبرقة" }, "geometry": { "type": "Point", "coordinates": [8.751125, 36.95387]}},
{ "type": "Feature", "properties": { "NAME_AR": "بلطة بوعوان" }, "geometry": { "type": "Point", "coordinates": [9.003241, 36.692959]}},
{ "type": "Feature", "properties": { "NAME_EN": "Fernana", "NAME_AR": "فرنانة" }, "geometry": { "type": "Point", "coordinates": [8.68907, 36.658952]}},
{ "type": "Feature", "properties": { "NAME_EN": "A%C3%AFn_Draham", "NAME_AR": "عين دراهم" }, "geometry": { "type": "Point", "coordinates": [8.684564, 36.773508]}},
{ "type": "Feature", "properties": { "NAME_EN": "Oued_Melliz", "NAME_AR": "وادي مليز" }, "geometry": { "type": "Point", "coordinates": [8.550925, 36.46699]}},
{ "type": "Feature", "properties": { "NAME_EN": "Beni_M%27Tir", "NAME_AR": "بني مطير" }, "geometry": { "type": "Point", "coordinates": [8.734775, 36.73995]}},
{ "type": "Feature", "properties": { "NAME_EN": "Beja", "NAME_AR": "باجة" }, "geometry": { "type": "Point", "coordinates": [9.188347, 36.726915]}},
{ "type": "Feature", "properties": { "NAME_EN": "Medjez_el-Bab", "NAME_AR": "مجاز الباب" }, "geometry": { "type": "Point", "coordinates": [9.611492, 36.650345]}},
{ "type": "Feature", "properties": { "NAME_EN": "Testour", "NAME_AR": "تستور" }, "geometry": { "type": "Point", "coordinates": [9.445109, 36.552569]}},
{ "type": "Feature", "properties": { "NAME_EN": "Nefza", "NAME_AR": "نفزة" }, "geometry": { "type": "Point", "coordinates": [9.077797, 36.97753]}},
{ "type": "Feature", "properties": { "NAME_EN": "Teboursouk", "NAME_AR": "تبرسق" }, "geometry": { "type": "Point", "coordinates": [9.245038, 36.460295]}},
{ "type": "Feature", "properties": { "NAME_EN": "Zahret_Mediou/transparence", "NAME_AR": "زهرة مدين" }, "geometry": { "type": "Point", "coordinates": [9.089727, 36.769005]}},
{ "type": "Feature", "properties": { "NAME_EN": "El_Ma%C3%A2goula", "NAME_AR": "المعقولة" }, "geometry": { "type": "Point", "coordinates": [9.210062, 36.712949]}},
{ "type": "Feature", "properties": { "NAME_EN": "Goubellat", "NAME_AR": "قبلاط" }, "geometry": { "type": "Point", "coordinates": [9.66445, 36.541812]}},
{ "type": "Feature", "properties": { "NAME_EN": "Tibar/transparence", "NAME_AR": "تيبار" }, "geometry": { "type": "Point", "coordinates": [9.106851, 36.522285]}},
{ "type": "Feature", "properties": { "NAME_EN": "Bizerte", "NAME_AR": "بنزرت" }, "geometry": { "type": "Point", "coordinates": [9.872589, 37.27617]}},
{ "type": "Feature", "properties": { "NAME_EN": "Menzel_Bourguiba", "NAME_AR": "منزل بورقيبة" }, "geometry": { "type": "Point", "coordinates": [9.780235, 37.149029]}},
{ "type": "Feature", "properties": { "NAME_EN": "Mateur/transparence", "NAME_AR": "ماطر" }, "geometry": { "type": "Point", "coordinates": [9.665051, 37.038462]}},
{ "type": "Feature", "properties": { "NAME_EN": "Ras_Jebel/transparence", "NAME_AR": "رأس الجبل" }, "geometry": { "type": "Point", "coordinates": [10.123301, 37.212797]}},
{ "type": "Feature", "properties": { "NAME_AR": "جومين" }, "geometry": { "type": "Point", "coordinates": [9.389008, 36.925529]}},
{ "type": "Feature", "properties": { "NAME_EN": "Menzel_Jemil/transparence", "NAME_AR": "منزل جميل" }, "geometry": { "type": "Point", "coordinates": [9.913273, 37.23518]}},
{ "type": "Feature", "properties": { "NAME_EN": "El_Alia", "NAME_AR": "العالية" }, "geometry": { "type": "Point", "coordinates": [10.032063, 37.169277]}},
{ "type": "Feature", "properties": { "NAME_AR": "غزالة" }, "geometry": { "type": "Point", "coordinates": [9.536433, 37.078407]}},
{ "type": "Feature", "properties": { "NAME_EN": "Tinja", "NAME_AR": "تينجة" }, "geometry": { "type": "Point", "coordinates": [9.759464, 37.163189]}},
{ "type": "Feature", "properties": { "NAME_EN": "Sejenane", "NAME_AR": "سجنان" }, "geometry": { "type": "Point", "coordinates": [9.240189, 37.057403]}},
{ "type": "Feature", "properties": { "NAME_AR": "أوتيك" }, "geometry": { "type": "Point", "coordinates": [10.037829, 37.041222]}},
{ "type": "Feature", "properties": { "NAME_EN": "Menzel_Abderrahmane", "NAME_AR": "منزل عبد الرحمان" }, "geometry": { "type": "Point", "coordinates": [9.860144, 37.239964]}},
{ "type": "Feature", "properties": { "NAME_EN": "Metline", "NAME_AR": "الماتلين" }, "geometry": { "type": "Point", "coordinates": [10.049486, 37.243893]}},
{ "type": "Feature", "properties": { "NAME_EN": "Raf_Raf", "NAME_AR": "رفراف" }, "geometry": { "type": "Point", "coordinates": [10.181708, 37.190921]}},
{ "type": "Feature", "properties": { "NAME_EN": "Aousja", "NAME_AR": "عوسجة" }, "geometry": { "type": "Point", "coordinates": [10.10107, 37.140682]}},
{ "type": "Feature", "properties": { "NAME_EN": "Ghar_El_Melh", "NAME_AR": "غار الملح" }, "geometry": { "type": "Point", "coordinates": [10.186, 37.167601]}},
{ "type": "Feature", "properties": { "NAME_EN": "Zaghouan", "NAME_AR": "زغوان" }, "geometry": { "type": "Point", "coordinates": [10.146432, 36.399835]}},
{ "type": "Feature", "properties": { "NAME_EN": "El_Fahs", "NAME_AR": "الفحص" }, "geometry": { "type": "Point", "coordinates": [9.909325, 36.376895]}},
{ "type": "Feature", "properties": { "NAME_EN": "Nadour", "NAME_AR": "الناظور" }, "geometry": { "type": "Point", "coordinates": [10.094461, 36.11985]}},
{ "type": "Feature", "properties": { "NAME_EN": "Hammam_Zriba", "NAME_AR": "الزريبة" }, "geometry": { "type": "Point", "coordinates": [10.206878, 36.352221]}},
{ "type": "Feature", "properties": { "NAME_EN": "M%27cherga", "NAME_AR": "بئر مشارقة" }, "geometry": { "type": "Point", "coordinates": [9.957948, 36.516914]}},
{ "type": "Feature", "properties": { "NAME_AR": "صواف" }, "geometry": { "type": "Point", "coordinates": [10.171869, 36.228158]}},
{ "type": "Feature", "properties": { "NAME_EN": "Jebel_Oust", "NAME_AR": "جبل الوسط" }, "geometry": { "type": "Point", "coordinates": [10.0597, 36.552948]}},
{ "type": "Feature", "properties": { "NAME_EN": "Nabeul", "NAME_AR": "الحمامات" }, "geometry": { "type": "Point", "coordinates": [10.615711, 36.401873]}},
{ "type": "Feature", "properties": { "NAME_EN": "Nabeul", "NAME_AR": "نابل" }, "geometry": { "type": "Point", "coordinates": [10.733557, 36.454151]}},
{ "type": "Feature", "properties": { "NAME_EN": "Korba", "NAME_AR": "قربة" }, "geometry": { "type": "Point", "coordinates": [10.862303, 36.577834]}},
{ "type": "Feature", "properties": { "NAME_EN": "Menzel_Temime", "NAME_AR": "منزل تميم" }, "geometry": { "type": "Point", "coordinates": [10.984354, 36.780417]}},
{ "type": "Feature", "properties": { "NAME_EN": "Kelibia", "NAME_AR": "قليبية" }, "geometry": { "type": "Point", "coordinates": [11.09868, 36.847964]}},
{ "type": "Feature", "properties": { "NAME_EN": "Dar_Chaabane_El_Fehri", "NAME_AR": "دار شعبان الفهري" }, "geometry": { "type": "Point", "coordinates": [10.784798, 36.467922]}},
{ "type": "Feature", "properties": { "NAME_EN": "Grombalia", "NAME_AR": "قرمبالية" }, "geometry": { "type": "Point", "coordinates": [10.499883, 36.601955]}},
{ "type": "Feature", "properties": { "NAME_EN": "Menzel_Bouzelfa", "NAME_AR": "منزل بوزلفة" }, "geometry": { "type": "Point", "coordinates": [10.583267, 36.682669]}},
{ "type": "Feature", "properties": { "NAME_EN": "Soliman", "NAME_AR": "سليمان" }, "geometry": { "type": "Point", "coordinates": [10.49087, 36.697569]}},
{ "type": "Feature", "properties": { "NAME_EN": "Bou_Argoub", "NAME_AR": "بوعرقوب" }, "geometry": { "type": "Point", "coordinates": [10.550652, 36.534433]}},
{ "type": "Feature", "properties": { "NAME_EN": "El_Mida", "NAME_AR": "الميدة" }, "geometry": { "type": "Point", "coordinates": [10.853376, 36.726984]}},
{ "type": "Feature", "properties": { "NAME_EN": "Beni_Khalled", "NAME_AR": "بني خلاد" }, "geometry": { "type": "Point", "coordinates": [10.591593, 36.649966]}},
{ "type": "Feature", "properties": { "NAME_EN": "El_Haouaria", "NAME_AR": "الهوارية" }, "geometry": { "type": "Point", "coordinates": [11.010232, 37.050759]}},
{ "type": "Feature", "properties": { "NAME_EN": "Beni_Khiar", "NAME_AR": "بني خيار" }, "geometry": { "type": "Point", "coordinates": [10.789433, 36.455083]}},
{ "type": "Feature", "properties": { "NAME_EN": "Takelsa", "NAME_AR": "تاكلسة" }, "geometry": { "type": "Point", "coordinates": [10.62717, 36.792412]}},
{ "type": "Feature", "properties": { "NAME_EN": "Menzel_Horr", "NAME_AR": "منزل حر" }, "geometry": { "type": "Point", "coordinates": [10.95706, 36.726537]}},
{ "type": "Feature", "properties": { "NAME_EN": "Zaouiet_Djedidi", "NAME_AR": "زاوية الجديدي" }, "geometry": { "type": "Point", "coordinates": [10.455036, 36.673651]}},
{ "type": "Feature", "properties": { "NAME_EN": "El_Ma%C3%A2moura", "NAME_AR": "المعمورة" }, "geometry": { "type": "Point", "coordinates": [10.806856, 36.464298]}},
{ "type": "Feature", "properties": { "NAME_EN": "Azmour", "NAME_AR": "أزمور" }, "geometry": { "type": "Point", "coordinates": [11.007357, 36.924405]}},
{ "type": "Feature", "properties": { "NAME_EN": "Hammam_El_Guezaz", "NAME_AR": "حمام الغزاز" }, "geometry": { "type": "Point", "coordinates": [11.105032, 36.87375]}},
{ "type": "Feature", "properties": { "NAME_EN": "Tazarka", "NAME_AR": "تازركة" }, "geometry": { "type": "Point", "coordinates": [10.836639, 36.547018]}},
{ "type": "Feature", "properties": { "NAME_EN": "Soma%C3%A2", "NAME_AR": "الصّمعة" }, "geometry": { "type": "Point", "coordinates": [10.780292, 36.542295]}},
{ "type": "Feature", "properties": { "NAME_EN": "Dar_Allouch", "NAME_AR": "دار علوش" }, "geometry": { "type": "Point", "coordinates": [11.053791, 36.967141]}},
{ "type": "Feature", "properties": { "NAME_EN": "Korbous", "NAME_AR": "قربص" }, "geometry": { "type": "Point", "coordinates": [10.568504, 36.816534]}},
{ "type": "Feature", "properties": { "NAME_EN": "Manouba", "NAME_AR": "دوار هيشر" }, "geometry": { "type": "Point", "coordinates": [10.088496, 36.826256]}},
{ "type": "Feature", "properties": { "NAME_EN": "Oued_Ellil/transparence", "NAME_AR": "وادي الليل" }, "geometry": { "type": "Point", "coordinates": [10.038242, 36.838553]}},
{ "type": "Feature", "properties": { "NAME_EN": "Djedeida", "NAME_AR": "الجديدة" }, "geometry": { "type": "Point", "coordinates": [9.932241, 36.843362]}},
{ "type": "Feature", "properties": { "NAME_EN": "Tebourba", "NAME_AR": "طبربة" }, "geometry": { "type": "Point", "coordinates": [9.833708, 36.831684]}},
{ "type": "Feature", "properties": { "NAME_EN": "La_Manouba", "NAME_AR": "منوبة" }, "geometry": { "type": "Point", "coordinates": [10.100427, 36.807326]}},
{ "type": "Feature", "properties": { "NAME_EN": "Mornaguia", "NAME_AR": "المرناقية" }, "geometry": { "type": "Point", "coordinates": [10.011635, 36.754977]}},
{ "type": "Feature", "properties": { "NAME_EN": "Den_Den", "NAME_AR": "الدندان" }, "geometry": { "type": "Point", "coordinates": [10.11107, 36.809628]}},
{ "type": "Feature", "properties": { "NAME_EN": "El_Battan", "NAME_AR": "البطان" }, "geometry": { "type": "Point", "coordinates": [9.844866, 36.803615]}},
{ "type": "Feature", "properties": { "NAME_EN": "Borj_El_Amri", "NAME_AR": "برج العامري" }, "geometry": { "type": "Point", "coordinates": [9.882846, 36.713224]}},
{ "type": "Feature", "properties": { "NAME_EN": "Ben Arous", "NAME_AR": "المروج" }, "geometry": { "type": "Point", "coordinates": [10.203209, 36.740122]}},
{ "type": "Feature", "properties": { "NAME_EN": "Ben_Arous", "NAME_AR": "بن عروس" }, "geometry": { "type": "Point", "coordinates": [10.23119, 36.74308]}},
{ "type": "Feature", "properties": { "NAME_EN": "Mohamedia/transparence", "NAME_AR": "المحمدية" }, "geometry": { "type": "Point", "coordinates": [10.1651, 36.687556]}},
{ "type": "Feature", "properties": { "NAME_EN": "Rades", "NAME_AR": "رادس" }, "geometry": { "type": "Point", "coordinates": [10.280886, 36.76151]}},
{ "type": "Feature", "properties": { "NAME_EN": "Hammam_Lif", "NAME_AR": "حمام الأنف" }, "geometry": { "type": "Point", "coordinates": [10.332985, 36.732762]}},
{ "type": "Feature", "properties": { "NAME_EN": "Mornag", "NAME_AR": "مرناق" }, "geometry": { "type": "Point", "coordinates": [10.287924, 36.683942]}},
{ "type": "Feature", "properties": { "NAME_EN": "Bou_Mhel_el-Bassatine", "NAME_AR": "بومهل البساتين" }, "geometry": { "type": "Point", "coordinates": [10.298996, 36.729048]}},
{ "type": "Feature", "properties": { "NAME_EN": "Ezzahra", "NAME_AR": "الزهراء" }, "geometry": { "type": "Point", "coordinates": [10.308695, 36.742529]}},
{ "type": "Feature", "properties": { "NAME_EN": "Hammam_Chott", "NAME_AR": "حمام الشط" }, "geometry": { "type": "Point", "coordinates": [10.387917, 36.707238]}},
{ "type": "Feature", "properties": { "NAME_AR": "نعسان" }, "geometry": { "type": "Point", "coordinates": ["", ""]}},
{ "type": "Feature", "properties": { "NAME_EN": "Megrine", "NAME_AR": "مقرين" }, "geometry": { "type": "Point", "coordinates": [10.232563, 36.772442]}},
{ "type": "Feature", "properties": { "NAME_EN": "Khalidia", "NAME_AR": "الخليدية" }, "geometry": { "type": "Point", "coordinates": [10.194583, 36.646041]}},
{ "type": "Feature", "properties": { "NAME_EN": "Ariana", "NAME_AR": "سكرة" }, "geometry": { "type": "Point", "coordinates": [10.266809, 36.864721]}},
{ "type": "Feature", "properties": { "NAME_EN": "Ariana", "NAME_AR": "أريانة" }, "geometry": { "type": "Point", "coordinates": [10.196171, 36.860532]}},
{ "type": "Feature", "properties": { "NAME_EN": "Raoued", "NAME_AR": "رواد" }, "geometry": { "type": "Point", "coordinates": [10.205956, 36.934525]}},
{ "type": "Feature", "properties": { "NAME_EN": "Ettadhamen", "NAME_AR": "التضامن" }, "geometry": { "type": "Point", "coordinates": [10.118237, 36.834844]}},
{ "type": "Feature", "properties": { "NAME_EN": "Kala%C3%A2t_el-Andalous", "NAME_AR": "قلعة الأندلس" }, "geometry": { "type": "Point", "coordinates": [10.117507, 37.06189]}},
{ "type": "Feature", "properties": { "NAME_EN": "Sidi_Thabet", "NAME_AR": "سيدي ثابت" }, "geometry": { "type": "Point", "coordinates": [10.041847, 36.910372]}},
{ "type": "Feature", "properties": { "NAME_EN": "Tunis", "NAME_AR": "تونس" }, "geometry": { "type": "Point", "coordinates": [10.165958, 36.819111]}},
{ "type": "Feature", "properties": { "NAME_EN": "Sidi_Hassine", "NAME_AR": "سيدي حسين" }, "geometry": { "type": "Point", "coordinates": [10.111713, 36.772717]}},
{ "type": "Feature", "properties": { "NAME_EN": "La_Marsa", "NAME_AR": "المرسى" }, "geometry": { "type": "Point", "coordinates": [10.314875, 36.877149]}},
{ "type": "Feature", "properties": { "NAME_EN": "Le_Kram", "NAME_AR": "الكرم" }, "geometry": { "type": "Point", "coordinates": [10.312386, 36.834981]}},
{ "type": "Feature", "properties": { "NAME_EN": "Le_Bardo", "NAME_AR": "باردو" }, "geometry": { "type": "Point", "coordinates": [10.137806, 36.80901]}},
{ "type": "Feature", "properties": { "NAME_EN": "La_Goulette", "NAME_AR": "حلق الوادي" }, "geometry": { "type": "Point", "coordinates": [10.304532, 36.818149]}},
{ "type": "Feature", "properties": { "NAME_EN": "Carthage", "NAME_AR": "قرطاج" }, "geometry": { "type": "Point", "coordinates": [10.322857, 36.861905]}},
{ "type": "Feature", "properties": { "NAME_EN": "Sidi_Bou_Sa%C3%AFd", "NAME_AR": "سيدي بوسعيد" }, "geometry": { "type": "Point", "coordinates": [10.338778, 36.869596]}}

  ]

}